[
  {
    "Name": "ARIANA",
    "NameAr": "أريانة",
    "Value": "ARIANA",
    "Delegations": [
      {
        "Name": "ARIANA VILLE",
        "NameAr": "أريانة المدينة",
        "Value": "ARIANA VILLE",
        "PostalCode": "2058",
        "Latitude": 36.866474,
        "Longitude": 10.164726
      },
      {
        "Name": "SIDI THABET",
        "NameAr": "سيدي ثابت",
        "Value": "SIDI THABET",
        "PostalCode": "2032",
        "Latitude": 36.898614,
        "Longitude": 10.030632
      },
      {
        "Name": "LA SOUKRA",
        "NameAr": "سكرة",
        "Value": "LA SOUKRA",
        "PostalCode": "2036",
        "Latitude": 36.883618,
        "Longitude": 10.240874
      },
      {
        "Name": "KALAAT LANDLOUS",
        "NameAr": "قلعة الأندلس",
        "Value": "KALAAT LANDLOUS",
        "PostalCode": "2061",
        "Latitude": 37.066667,
        "Longitude": 10.183333
      },
      {
        "Name": "RAOUED",
        "NameAr": "رواد",
        "Value": "RAOUED",
        "PostalCode": "2083",
        "Latitude": 36.931944,
        "Longitude": 10.160278
      },
      {
        "Name": "MNIHLA",
        "NameAr": "المنيهلة",
        "Value": "MNIHLA",
        "PostalCode": "2094",
        "Latitude": 36.866331,
        "Longitude": 10.089634
      },
      {
        "Name": "ETTADHAMEN",
        "NameAr": "التضامن",
        "Value": "ETTADHAMEN",
        "PostalCode": "2041",
        "Latitude": 36.839821,
        "Longitude": 10.099205
      }
    ]
  },
  {
    "Name": "BEJA",
    "NameAr": "باجة",
    "Value": "BEJA",
    "Delegations": [
      {
        "Name": "TESTOUR",
        "NameAr": "تستور",
        "Value": "TESTOUR",
        "PostalCode": "9014",
        "Latitude": 36.552305,
        "Longitude": 9.444303
      },
      {
        "Name": "TEBOURSOUK",
        "NameAr": "تبرسق",
        "Value": "TEBOURSOUK",
        "PostalCode": "9032",
        "Latitude": 36.458038,
        "Longitude": 9.249001
      },
      {
        "Name": "BEJA NORD",
        "NameAr": "باجة الشمالية",
        "Value": "BEJA NORD",
        "PostalCode": "9000",
        "Latitude": 36.728826,
        "Longitude": 9.183218
      },
      {
        "Name": "MEJEZ EL BAB",
        "NameAr": "مجاز الباب",
        "Value": "MEJEZ EL BAB",
        "PostalCode": "9034",
        "Latitude": 36.649444,
        "Longitude": 9.609167
      },
      {
        "Name": "NEFZA",
        "NameAr": "نفزة",
        "Value": "NEFZA",
        "PostalCode": "9010",
        "Latitude": 37.074444,
        "Longitude": 9.085833
      },
      {
        "Name": "BEJA SUD",
        "NameAr": "باجة الجنوبية",
        "Value": "BEJA SUD",
        "PostalCode": "9021",
        "Latitude": 36.728826,
        "Longitude": 9.183218
      },
      {
        "Name": "THIBAR",
        "NameAr": "تيبار",
        "Value": "THIBAR",
        "PostalCode": "9022",
        "Latitude": 36.611944,
        "Longitude": 9.059722
      },
      {
        "Name": "AMDOUN",
        "NameAr": "عمدون",
        "Value": "AMDOUN",
        "PostalCode": "9030",
        "Latitude": 36.839167,
        "Longitude": 9.081111
      },
      {
        "Name": "GOUBELLAT",
        "NameAr": "قبلاط",
        "Value": "GOUBELLAT",
        "PostalCode": "9080",
        "Latitude": 36.534167,
        "Longitude": 9.600000
      }
    ]
  },
  {
    "Name": "BEN AROUS",
    "NameAr": "بن عروس",
    "Value": "BEN_AROUS",
    "Delegations": [
      {
        "Name": "FOUCHANA",
        "NameAr": "فوشانة",
        "Value": "FOUCHANA",
        "PostalCode": "2082",
        "Latitude": 36.703889,
        "Longitude": 10.155000
      },
      {
        "Name": "HAMMAM LIF",
        "NameAr": "حمام الأنف",
        "Value": "HAMMAM LIF",
        "PostalCode": "2050",
        "Latitude": 36.727778,
        "Longitude": 10.336111
      },
      {
        "Name": "EL MOUROUJ",
        "NameAr": "المروج",
        "Value": "EL MOUROUJ",
        "PostalCode": "2074",
        "Latitude": 36.739889,
        "Longitude": 10.205000
      },
      {
        "Name": "BOU MHEL EL BASSATINE",
        "NameAr": "بومهل البساتين",
        "Value": "BOU MHEL EL BASSATINE",
        "PostalCode": "2097",
        "Latitude": 36.729444,
        "Longitude": 10.280000
      },
      {
        "Name": "RADES",
        "NameAr": "رادس",
        "Value": "RADES",
        "PostalCode": "2098",
        "Latitude": 36.766667,
        "Longitude": 10.283333
      },
      {
        "Name": "MOHAMADIA",
        "NameAr": "المحمدية",
        "Value": "MOHAMADIA",
        "PostalCode": "1145",
        "Latitude": 36.689444,
        "Longitude": 10.131389
      },
      {
        "Name": "MEGRINE",
        "NameAr": "مقرين",
        "Value": "MEGRINE",
        "PostalCode": "2033",
        "Latitude": 36.781111,
        "Longitude": 10.238333
      },
      {
        "Name": "NOUVELLE MEDINA",
        "NameAr": "المدينة الجديدة",
        "Value": "NOUVELLE MEDINA",
        "PostalCode": "2063",
        "Latitude": 36.753889,
        "Longitude": 10.232222
      },
      {
        "Name": "HAMMAM CHATT",
        "NameAr": "حمام الشط",
        "Value": "HAMMAM CHATT",
        "PostalCode": "1164",
        "Latitude": 36.700000,
        "Longitude": 10.366667
      },
      {
        "Name": "MORNAG",
        "NameAr": "مرناق",
        "Value": "MORNAG",
        "PostalCode": "2064",
        "Latitude": 36.633333,
        "Longitude": 10.250000
      },
      {
        "Name": "EZZAHRA",
        "NameAr": "الزهراء",
        "Value": "EZZAHRA",
        "PostalCode": "2034",
        "Latitude": 36.743333,
        "Longitude": 10.308333
      },
      {
        "Name": "BEN AROUS",
        "NameAr": "بن عروس",
        "Value": "BEN AROUS",
        "PostalCode": "2043",
        "Latitude": 36.748333,
        "Longitude": 10.222500
      }
    ]
  },
  {
    "Name": "BIZERTE",
    "NameAr": "بنزرت",
    "Value": "BIZERTE",
    "Delegations": [
      {
        "Name": "MENZEL JEMIL",
        "NameAr": "منزل جميل",
        "Value": "MENZEL JEMIL",
        "PostalCode": "7035",
        "Latitude": 37.233333,
        "Longitude": 9.916667
      },
      {
        "Name": "BIZERTE SUD",
        "NameAr": "بنزرت الجنوبية",
        "Value": "BIZERTE SUD",
        "PostalCode": "7071",
        "Latitude": 37.274444,
        "Longitude": 9.873889
      },
      {
        "Name": "SEJNANE",
        "NameAr": "سجنان",
        "Value": "SEJNANE",
        "PostalCode": "7010",
        "Latitude": 37.153889,
        "Longitude": 9.238889
      },
      {
        "Name": "GHAR EL MELH",
        "NameAr": "غار الملح",
        "Value": "GHAR EL MELH",
        "PostalCode": "7024",
        "Latitude": 37.166667,
        "Longitude": 10.193056
      },
      {
        "Name": "MENZEL BOURGUIBA",
        "NameAr": "منزل بورقيبة",
        "Value": "MENZEL BOURGUIBA",
        "PostalCode": "7072",
        "Latitude": 37.150000,
        "Longitude": 9.783333
      },
      {
        "Name": "RAS JEBEL",
        "NameAr": "رأس الجبل",
        "Value": "RAS JEBEL",
        "PostalCode": "7025",
        "Latitude": 37.214722,
        "Longitude": 10.121389
      },
      {
        "Name": "GHEZALA",
        "NameAr": "غزالة",
        "Value": "GHEZALA",
        "PostalCode": "7040",
        "Latitude": 37.116667,
        "Longitude": 9.533333
      },
      {
        "Name": "JOUMINE",
        "NameAr": "جومين",
        "Value": "JOUMINE",
        "PostalCode": "7012",
        "Latitude": 36.950000,
        "Longitude": 9.400000
      },
      {
        "Name": "UTIQUE",
        "NameAr": "أوتيك",
        "Value": "UTIQUE",
        "PostalCode": "7013",
        "Latitude": 37.052500,
        "Longitude": 10.058889
      },
      {
        "Name": "BIZERTE NORD",
        "NameAr": "بنزرت الشمالية",
        "Value": "BIZERTE NORD",
        "PostalCode": "7029",
        "Latitude": 37.274444,
        "Longitude": 9.873889
      },
      {
        "Name": "EL ALIA",
        "NameAr": "العالية",
        "Value": "EL ALIA",
        "PostalCode": "7081",
        "Latitude": 37.169167,
        "Longitude": 10.045000
      },
      {
        "Name": "MATEUR",
        "NameAr": "ماطر",
        "Value": "MATEUR",
        "PostalCode": "7030",
        "Latitude": 37.040278,
        "Longitude": 9.665556
      },
      {
        "Name": "JARZOUNA",
        "NameAr": "جرزونة",
        "Value": "JARZOUNA",
        "PostalCode": "7021",
        "Latitude": 37.258889,
        "Longitude": 9.882222
      },
      {
        "Name": "TINJA",
        "NameAr": "تينجة",
        "Value": "TINJA",
        "PostalCode": "7032",
        "Latitude": 37.161667,
        "Longitude": 9.759444
      }
    ]
  },
  {
    "Name": "GABES",
    "NameAr": "قابس",
    "Value": "GABES",
    "Delegations": [
      {
        "Name": "GABES SUD",
        "NameAr": "قابس الجنوبية",
        "Value": "GABES SUD",
        "PostalCode": "6012",
        "Latitude": 33.881453,
        "Longitude": 10.098195
      },
      {
        "Name": "MATMATA",
        "NameAr": "مطماطة",
        "Value": "MATMATA",
        "PostalCode": "6034",
        "Latitude": 33.542778,
        "Longitude": 9.974722
      },
      {
        "Name": "MARETH",
        "NameAr": "مارث",
        "Value": "MARETH",
        "PostalCode": "6080",
        "Latitude": 33.627778,
        "Longitude": 10.295833
      },
      {
        "Name": "EL HAMMA",
        "NameAr": "الحامة",
        "Value": "EL HAMMA",
        "PostalCode": "6013",
        "Latitude": 33.888889,
        "Longitude": 9.794444
      },
      {
        "Name": "NOUVELLE MATMATA",
        "NameAr": "مطماطة الجديدة",
        "Value": "NOUVELLE MATMATA",
        "PostalCode": "6044",
        "Latitude": 33.702222,
        "Longitude": 10.025278
      },
      {
        "Name": "GABES MEDINA",
        "NameAr": "قابس المدينة",
        "Value": "GABES MEDINA",
        "PostalCode": "6040",
        "Latitude": 33.886300,
        "Longitude": 10.112800
      },
      {
        "Name": "GABES OUEST",
        "NameAr": "قابس الغربية",
        "Value": "GABES OUEST",
        "PostalCode": "6041",
        "Latitude": 33.881453,
        "Longitude": 10.098195
      },
      {
        "Name": "EL METOUIA",
        "NameAr": "المطوية",
        "Value": "EL METOUIA",
        "PostalCode": "6052",
        "Latitude": 33.961111,
        "Longitude": 10.005556
      },
      {
        "Name": "GHANNOUCHE",
        "NameAr": "غنوش",
        "Value": "GHANNOUCHE",
        "PostalCode": "6021",
        "Latitude": 33.933333,
        "Longitude": 10.066667
      },
      {
        "Name": "MENZEL HABIB",
        "NameAr": "منزل الحبيب",
        "Value": "MENZEL HABIB",
        "PostalCode": "6030",
        "Latitude": 34.125833,
        "Longitude": 9.703333
      }
    ]
  },
  {
    "Name": "GAFSA",
    "NameAr": "قفصة",
    "Value": "GAFSA",
    "Delegations": [
      {
        "Name": "BELKHIR",
        "NameAr": "بلخير",
        "Value": "BELKHIR",
        "PostalCode": "2135",
        "Latitude": 34.466667,
        "Longitude": 9.066667
      },
      {
        "Name": "GAFSA NORD",
        "NameAr": "قفصة الشمالية",
        "Value": "GAFSA NORD",
        "PostalCode": "2196",
        "Latitude": 34.425000,
        "Longitude": 8.784167
      },
      {
        "Name": "SNED",
        "NameAr": "السند",
        "Value": "SNED",
        "PostalCode": "2116",
        "Latitude": 34.472222,
        "Longitude": 9.211111
      },
      {
        "Name": "REDEYEF",
        "NameAr": "الرديف",
        "Value": "REDEYEF",
        "PostalCode": "2140",
        "Latitude": 34.383333,
        "Longitude": 8.150000
      },
      {
        "Name": "GAFSA SUD",
        "NameAr": "قفصة الجنوبية",
        "Value": "GAFSA SUD",
        "PostalCode": "2100",
        "Latitude": 34.425000,
        "Longitude": 8.784167
      },
      {
        "Name": "EL GUETTAR",
        "NameAr": "القطار",
        "Value": "EL GUETTAR",
        "PostalCode": "2145",
        "Latitude": 34.328333,
        "Longitude": 8.951944
      },
      {
        "Name": "EL KSAR",
        "NameAr": "القصر",
        "Value": "EL KSAR",
        "PostalCode": "2151",
        "Latitude": 34.400000,
        "Longitude": 8.816667
      },
      {
        "Name": "MOULARES",
        "NameAr": "أم العرائس",
        "Value": "MOULARES",
        "PostalCode": "2161",
        "Latitude": 34.494444,
        "Longitude": 8.251944
      },
      {
        "Name": "EL MDHILLA",
        "NameAr": "المظيلة",
        "Value": "EL MDHILLA",
        "PostalCode": "2170",
        "Latitude": 34.323333,
        "Longitude": 8.602500
      },
      {
        "Name": "METLAOUI",
        "NameAr": "المتلوي",
        "Value": "METLAOUI",
        "PostalCode": "2130",
        "Latitude": 34.325833,
        "Longitude": 8.401389
      },
      {
        "Name": "SIDI AICH",
        "NameAr": "سيدي عيش",
        "Value": "SIDI AICH",
        "PostalCode": "2131",
        "Latitude": 34.600000,
        "Longitude": 8.883333
      }
    ]
  },
  {
    "Name": "JENDOUBA",
    "NameAr": "جندوبة",
    "Value": "JENDOUBA",
    "Delegations": [
      {
        "Name": "BALTA BOU AOUENE",
        "NameAr": "بلطة بوعوان",
        "Value": "BALTA BOU AOUENE",
        "PostalCode": "8116",
        "Latitude": 36.450000,
        "Longitude": 8.966667
      },
      {
        "Name": "FERNANA",
        "NameAr": "فرنانة",
        "Value": "FERNANA",
        "PostalCode": "8142",
        "Latitude": 36.652500,
        "Longitude": 8.693056
      },
      {
        "Name": "JENDOUBA NORD",
        "NameAr": "جندوبة الشمالية",
        "Value": "JENDOUBA NORD",
        "PostalCode": "8189",
        "Latitude": 36.501000,
        "Longitude": 8.780000
      },
      {
        "Name": "AIN DRAHAM",
        "NameAr": "عين دراهم",
        "Value": "AIN DRAHAM",
        "PostalCode": "8121",
        "Latitude": 36.777500,
        "Longitude": 8.691944
      },
      {
        "Name": "TABARKA",
        "NameAr": "طبرقة",
        "Value": "TABARKA",
        "PostalCode": "8192",
        "Latitude": 36.954444,
        "Longitude": 8.758056
      },
      {
        "Name": "JENDOUBA",
        "NameAr": "جندوبة",
        "Value": "JENDOUBA",
        "PostalCode": "8122",
        "Latitude": 36.501000,
        "Longitude": 8.780000
      },
      {
        "Name": "BOU SALEM",
        "NameAr": "بوسالم",
        "Value": "BOU SALEM",
        "PostalCode": "8143",
        "Latitude": 36.611667,
        "Longitude": 8.968889
      },
      {
        "Name": "OUED MLIZ",
        "NameAr": "وادي مليز",
        "Value": "OUED MLIZ",
        "PostalCode": "8193",
        "Latitude": 36.466667,
        "Longitude": 8.550000
      },
      {
        "Name": "GHARDIMAOU",
        "NameAr": "غار الدماء",
        "Value": "GHARDIMAOU",
        "PostalCode": "8160",
        "Latitude": 36.479444,
        "Longitude": 8.439722
      }
    ]
  },
  {
    "Name": "KAIROUAN",
    "NameAr": "القيروان",
    "Value": "KAIROUAN",
    "Delegations": [
      {
        "Name": "CHEBIKA",
        "NameAr": "الشبيكة",
        "Value": "CHEBIKA",
        "PostalCode": "3121",
        "Latitude": 35.683333,
        "Longitude": 9.750000
      },
      {
        "Name": "EL ALA",
        "NameAr": "العلا",
        "Value": "EL ALA",
        "PostalCode": "3154",
        "Latitude": 35.608333,
        "Longitude": 9.550000
      },
      {
        "Name": "OUESLATIA",
        "NameAr": "الوسلاتية",
        "Value": "OUESLATIA",
        "PostalCode": "3124",
        "Latitude": 35.850000,
        "Longitude": 9.600000
      },
      {
        "Name": "HAJEB EL AYOUN",
        "NameAr": "حاجب العيون",
        "Value": "HAJEB EL AYOUN",
        "PostalCode": "3160",
        "Latitude": 35.383333,
        "Longitude": 9.550000
      },
      {
        "Name": "SBIKHA",
        "NameAr": "السبيخة",
        "Value": "SBIKHA",
        "PostalCode": "3125",
        "Latitude": 35.933333,
        "Longitude": 10.000000
      },
      {
        "Name": "BOU HAJLA",
        "NameAr": "بوحجلة",
        "Value": "BOU HAJLA",
        "PostalCode": "3126",
        "Latitude": 35.250000,
        "Longitude": 10.016667
      },
      {
        "Name": "KAIROUAN NORD",
        "NameAr": "القيروان الشمالية",
        "Value": "KAIROUAN NORD",
        "PostalCode": "3129",
        "Latitude": 35.678056,
        "Longitude": 10.096306
      },
      {
        "Name": "HAFFOUZ",
        "NameAr": "حفوز",
        "Value": "HAFFOUZ",
        "PostalCode": "3130",
        "Latitude": 35.633333,
        "Longitude": 9.666667
      },
      {
        "Name": "KAIROUAN SUD",
        "NameAr": "القيروان الجنوبية",
        "Value": "KAIROUAN SUD",
        "PostalCode": "3131",
        "Latitude": 35.678056,
        "Longitude": 10.096306
      },
      {
        "Name": "NASRALLAH",
        "NameAr": "نصر الله",
        "Value": "NASRALLAH",
        "PostalCode": "3170",
        "Latitude": 35.050000,
        "Longitude": 9.733333
      },
      {
        "Name": "CHERARDA",
        "NameAr": "الشراردة",
        "Value": "CHERARDA",
        "PostalCode": "3145",
        "Latitude": 35.452222,
        "Longitude": 10.230000
      }
    ]
  },
  {
    "Name": "KASSERINE",
    "NameAr": "القصرين",
    "Value": "KASSERINE",
    "Delegations": [
      {
        "Name": "SBEITLA",
        "NameAr": "سبيطلة",
        "Value": "SBEITLA",
        "PostalCode": "1250",
        "Latitude": 35.233333,
        "Longitude": 9.133333
      },
      {
        "Name": "FOUSSANA",
        "NameAr": "فوسانة",
        "Value": "FOUSSANA",
        "PostalCode": "1220",
        "Latitude": 35.100000,
        "Longitude": 8.666667
      },
      {
        "Name": "KASSERINE NORD",
        "NameAr": "القصرين الشمالية",
        "Value": "KASSERINE NORD",
        "PostalCode": "1253",
        "Latitude": 35.167600,
        "Longitude": 8.830200
      },
      {
        "Name": "HAIDRA",
        "NameAr": "حيدرة",
        "Value": "HAIDRA",
        "PostalCode": "1221",
        "Latitude": 35.562500,
        "Longitude": 8.494444
      },
      {
        "Name": "THALA",
        "NameAr": "تالة",
        "Value": "THALA",
        "PostalCode": "1210",
        "Latitude": 35.575000,
        "Longitude": 8.672222
      },
      {
        "Name": "SBIBA",
        "NameAr": "سبيبة",
        "Value": "SBIBA",
        "PostalCode": "1270",
        "Latitude": 35.550000,
        "Longitude": 9.066667
      },
      {
        "Name": "FERIANA",
        "NameAr": "فريانة",
        "Value": "FERIANA",
        "PostalCode": "1240",
        "Latitude": 34.950000,
        "Longitude": 8.583333
      },
      {
        "Name": "MEJEL BEL ABBES",
        "NameAr": "ماجل بلعباس",
        "Value": "MEJEL BEL ABBES",
        "PostalCode": "1226",
        "Latitude": 34.800000,
        "Longitude": 8.833333
      },
      {
        "Name": "KASSERINE SUD",
        "NameAr": "القصرين الجنوبية",
        "Value": "KASSERINE SUD",
        "PostalCode": "1233",
        "Latitude": 35.167600,
        "Longitude": 8.830200
      },
      {
        "Name": "EL AYOUN",
        "NameAr": "العيون",
        "Value": "EL AYOUN",
        "PostalCode": "1234",
        "Latitude": 35.383333,
        "Longitude": 8.700000
      },
      {
        "Name": "EZZOUHOUR  (KASSERINE)",
        "NameAr": "الزهور (القصرين)",
        "Value": "EZZOUHOUR  (KASSERINE)",
        "PostalCode": "1279",
        "Latitude": 35.183300,
        "Longitude": 8.800000
      },
      {
        "Name": "JEDILIANE",
        "NameAr": "جدليان",
        "Value": "JEDILIANE",
        "PostalCode": "1280",
        "Latitude": 35.616667,
        "Longitude": 9.183333
      },
      {
        "Name": "HASSI EL FRID",
        "NameAr": "حاسي الفريد",
        "Value": "HASSI EL FRID",
        "PostalCode": "1241",
        "Latitude": 34.933333,
        "Longitude": 9.000000
      }
    ]
  },
  {
    "Name": "KEBILI",
    "NameAr": "قبلي",
    "Value": "KEBILI",
    "Delegations": [
      {
        "Name": "SOUK EL AHAD",
        "NameAr": "سوق الأحد",
        "Value": "SOUK EL AHAD",
        "PostalCode": "4223",
        "Latitude": 33.700000,
        "Longitude": 8.950000
      },
      {
        "Name": "KEBILI SUD",
        "NameAr": "قبلي الجنوبية",
        "Value": "KEBILI SUD",
        "PostalCode": "4224",
        "Latitude": 33.705111,
        "Longitude": 8.872306
      },
      {
        "Name": "KEBILI NORD",
        "NameAr": "قبلي الشمالية",
        "Value": "KEBILI NORD",
        "PostalCode": "4232",
        "Latitude": 33.705111,
        "Longitude": 8.872306
      },
      {
        "Name": "DOUZ",
        "NameAr": "دوز",
        "Value": "DOUZ",
        "PostalCode": "4234",
        "Latitude": 33.458889,
        "Longitude": 9.025556
      },
      {
        "Name": "EL FAOUAR",
        "NameAr": "الفوار",
        "Value": "EL FAOUAR",
        "PostalCode": "4264",
        "Latitude": 33.350000,
        "Longitude": 8.616667
      }
    ]
  },
  {
    "Name": "KEF",
    "NameAr": "الكاف",
    "Value": "KEF",
    "Delegations": [
      {
        "Name": "TAJEROUINE",
        "NameAr": "تاجروين",
        "Value": "TAJEROUINE",
        "PostalCode": "7150",
        "Latitude": 35.883333,
        "Longitude": 8.616667
      },
      {
        "Name": "DAHMANI",
        "NameAr": "الدهماني",
        "Value": "DAHMANI",
        "PostalCode": "7170",
        "Latitude": 35.950000,
        "Longitude": 8.816667
      },
      {
        "Name": "LE KEF EST",
        "NameAr": "الكاف الشرقية",
        "Value": "LE KEF EST",
        "PostalCode": "7100",
        "Latitude": 36.180278,
        "Longitude": 8.711111
      },
      {
        "Name": "SAKIET SIDI YOUSSEF",
        "NameAr": "ساقية سيدي يوسف",
        "Value": "SAKIET SIDI YOUSSEF",
        "PostalCode": "7120",
        "Latitude": 36.350000,
        "Longitude": 8.350000
      },
      {
        "Name": "LE SERS",
        "NameAr": "السرس",
        "Value": "LE SERS",
        "PostalCode": "7180",
        "Latitude": 36.083333,
        "Longitude": 9.033333
      },
      {
        "Name": "NEBEUR",
        "NameAr": "نبر",
        "Value": "NEBEUR",
        "PostalCode": "7110",
        "Latitude": 36.366667,
        "Longitude": 8.816667
      },
      {
        "Name": "TOUIREF",
        "NameAr": "الطويرف",
        "Value": "TOUIREF",
        "PostalCode": "7112",
        "Latitude": 36.283333,
        "Longitude": 8.550000
      },
      {
        "Name": "EL KSOUR",
        "NameAr": "القصور",
        "Value": "EL KSOUR",
        "PostalCode": "7160",
        "Latitude": 35.800000,
        "Longitude": 8.866667
      },
      {
        "Name": "KALAA EL KHASBA",
        "NameAr": "القلعة الخصباء",
        "Value": "KALAA EL KHASBA",
        "PostalCode": "7123",
        "Latitude": 35.633333,
        "Longitude": 8.450000
      },
      {
        "Name": "KALAAT SINANE",
        "NameAr": "قلعة سنان",
        "Value": "KALAAT SINANE",
        "PostalCode": "7130",
        "Latitude": 35.950000,
        "Longitude": 8.466667
      },
      {
        "Name": "JERISSA",
        "NameAr": "الجريصة",
        "Value": "JERISSA",
        "PostalCode": "7114",
        "Latitude": 35.866667,
        "Longitude": 8.633333
      },
      {
        "Name": "LE KEF OUEST",
        "NameAr": "الكاف الغربية",
        "Value": "LE KEF OUEST",
        "PostalCode": "7117",
        "Latitude": 36.180278,
        "Longitude": 8.711111
      }
    ]
  },
  {
    "Name": "MAHDIA",
    "NameAr": "المهدية",
    "Value": "MAHDIA",
    "Delegations": [
      {
        "Name": "MAHDIA",
        "NameAr": "المهدية",
        "Value": "MAHDIA",
        "PostalCode": "5111",
        "Latitude": 35.504722,
        "Longitude": 11.062222
      },
      {
        "Name": "CHORBANE",
        "NameAr": "شربان",
        "Value": "CHORBANE",
        "PostalCode": "5130",
        "Latitude": 35.266667,
        "Longitude": 10.516667
      },
      {
        "Name": "EL JEM",
        "NameAr": "الجم",
        "Value": "EL JEM",
        "PostalCode": "5160",
        "Latitude": 35.296389,
        "Longitude": 10.711111
      },
      {
        "Name": "LA CHEBBA",
        "NameAr": "الشابة",
        "Value": "LA CHEBBA",
        "PostalCode": "5170",
        "Latitude": 35.233333,
        "Longitude": 11.116667
      },
      {
        "Name": "BOU MERDES",
        "NameAr": "بومرداس",
        "Value": "BOU MERDES",
        "PostalCode": "5112",
        "Latitude": 35.550000,
        "Longitude": 10.766667
      },
      {
        "Name": "KSOUR ESSAF",
        "NameAr": "قصور الساف",
        "Value": "KSOUR ESSAF",
        "PostalCode": "5180",
        "Latitude": 35.426667,
        "Longitude": 10.990000
      },
      {
        "Name": "SIDI ALOUENE",
        "NameAr": "سيدي علوان",
        "Value": "SIDI ALOUENE",
        "PostalCode": "5132",
        "Latitude": 35.350000,
        "Longitude": 10.816667
      },
      {
        "Name": "HBIRA",
        "NameAr": "هبيرة",
        "Value": "HBIRA",
        "PostalCode": "5113",
        "Latitude": 35.116667,
        "Longitude": 10.400000
      },
      {
        "Name": "MELLOULECH",
        "NameAr": "ملولش",
        "Value": "MELLOULECH",
        "PostalCode": "5114",
        "Latitude": 35.316667,
        "Longitude": 11.016667
      },
      {
        "Name": "SOUASSI",
        "NameAr": "السواسي",
        "Value": "SOUASSI",
        "PostalCode": "5134",
        "Latitude": 35.350000,
        "Longitude": 10.483333
      },
      {
        "Name": "OULED CHAMAKH",
        "NameAr": "أولاد الشامخ",
        "Value": "OULED CHAMAKH",
        "PostalCode": "5120",
        "Latitude": 35.400000,
        "Longitude": 10.300000
      }
    ]
  },
  {
    "Name": "MANNOUBA",
    "NameAr": "منوبة",
    "Value": "MANNOUBA",
    "Delegations": [
      {
        "Name": "TEBOURBA",
        "NameAr": "طبربة",
        "Value": "TEBOURBA",
        "PostalCode": "1144",
        "Latitude": 36.829167,
        "Longitude": 9.841667
      },
      {
        "Name": "JEDAIDA",
        "NameAr": "الجديدة",
        "Value": "JEDAIDA",
        "PostalCode": "1124",
        "Latitude": 36.808333,
        "Longitude": 9.933333
      },
      {
        "Name": "MORNAGUIA",
        "NameAr": "المرناقية",
        "Value": "MORNAGUIA",
        "PostalCode": "1110",
        "Latitude": 36.766667,
        "Longitude": 9.933333
      },
      {
        "Name": "BORJ EL AMRI",
        "NameAr": "برج العامري",
        "Value": "BORJ EL AMRI",
        "PostalCode": "1113",
        "Latitude": 36.750000,
        "Longitude": 9.833333
      },
      {
        "Name": "EL BATTAN",
        "NameAr": "البطان",
        "Value": "EL BATTAN",
        "PostalCode": "1114",
        "Latitude": 36.800000,
        "Longitude": 9.866667
      },
      {
        "Name": "OUED ELLIL",
        "NameAr": "وادي الليل",
        "Value": "OUED ELLIL",
        "PostalCode": "2021",
        "Latitude": 36.833333,
        "Longitude": 10.050000
      },
      {
        "Name": "DOUAR HICHER",
        "NameAr": "دوار هيشر",
        "Value": "DOUAR HICHER",
        "PostalCode": "2086",
        "Latitude": 36.835000,
        "Longitude": 10.066667
      },
      {
        "Name": "MANNOUBA",
        "NameAr": "منوبة",
        "Value": "MANNOUBA",
        "PostalCode": "2010",
        "Latitude": 36.813500,
        "Longitude": 10.095800
      }
    ]
  },
  {
    "Name": "MEDENINE",
    "NameAr": "مدنين",
    "Value": "MEDENINE",
    "Delegations": [
      {
        "Name": "HOUMET ESSOUK",
        "NameAr": "حومة السوق",
        "Value": "HOUMET ESSOUK",
        "PostalCode": "4180",
        "Latitude": 33.875000,
        "Longitude": 10.858333
      },
      {
        "Name": "BENI KHEDACHE",
        "NameAr": "بني خداش",
        "Value": "BENI KHEDACHE",
        "PostalCode": "4110",
        "Latitude": 33.250000,
        "Longitude": 10.200000
      },
      {
        "Name": "AJIM",
        "NameAr": "أجيم",
        "Value": "AJIM",
        "PostalCode": "4150",
        "Latitude": 33.720556,
        "Longitude": 10.751944
      },
      {
        "Name": "BEN GUERDANE",
        "NameAr": "بنقردان",
        "Value": "BEN GUERDANE",
        "PostalCode": "4153",
        "Latitude": 33.133333,
        "Longitude": 11.216667
      },
      {
        "Name": "ZARZIS",
        "NameAr": "جرجيس",
        "Value": "ZARZIS",
        "PostalCode": "4154",
        "Latitude": 33.503889,
        "Longitude": 11.112222
      },
      {
        "Name": "MEDENINE NORD",
        "NameAr": "مدنين الشمالية",
        "Value": "MEDENINE NORD",
        "PostalCode": "4111",
        "Latitude": 33.355000,
        "Longitude": 10.505278
      },
      {
        "Name": "MIDOUN",
        "NameAr": "ميدون",
        "Value": "MIDOUN",
        "PostalCode": "4113",
        "Latitude": 33.804722,
        "Longitude": 10.964722
      },
      {
        "Name": "SIDI MAKHLOUF",
        "NameAr": "سيدي مخلوف",
        "Value": "SIDI MAKHLOUF",
        "PostalCode": "4181",
        "Latitude": 33.566667,
        "Longitude": 10.450000
      },
      {
        "Name": "MEDENINE SUD",
        "NameAr": "مدنين الجنوبية",
        "Value": "MEDENINE SUD",
        "PostalCode": "4127",
        "Latitude": 33.355000,
        "Longitude": 10.505278
      }
    ]
  },
  {
    "Name": "MONASTIR",
    "NameAr": "المنستير",
    "Value": "MONASTIR",
    "Delegations": [
      {
        "Name": "MONASTIR",
        "NameAr": "المنستير",
        "Value": "MONASTIR",
        "PostalCode": "5060",
        "Latitude": 35.764298,
        "Longitude": 10.809098
      },
      {
        "Name": "SAHLINE",
        "NameAr": "الساحلين",
        "Value": "SAHLINE",
        "PostalCode": "5012",
        "Latitude": 35.750000,
        "Longitude": 10.733333
      },
      {
        "Name": "KSIBET EL MEDIOUNI",
        "NameAr": "قصيبة المديوني",
        "Value": "KSIBET EL MEDIOUNI",
        "PostalCode": "5031",
        "Latitude": 35.666667,
        "Longitude": 10.800000
      },
      {
        "Name": "JEMMAL",
        "NameAr": "جمال",
        "Value": "JEMMAL",
        "PostalCode": "5013",
        "Latitude": 35.625000,
        "Longitude": 10.754167
      },
      {
        "Name": "BENI HASSEN",
        "NameAr": "بني حسان",
        "Value": "BENI HASSEN",
        "PostalCode": "5014",
        "Latitude": 35.566667,
        "Longitude": 10.733333
      },
      {
        "Name": "SAYADA LAMTA BOU HAJAR",
        "NameAr": "صيادة لمطة بوحجر",
        "Value": "SAYADA LAMTA BOU HAJAR",
        "PostalCode": "5015",
        "Latitude": 35.666667,
        "Longitude": 10.883333
      },
      {
        "Name": "TEBOULBA",
        "NameAr": "طبلبة",
        "Value": "TEBOULBA",
        "PostalCode": "5066",
        "Latitude": 35.640556,
        "Longitude": 10.961389
      },
      {
        "Name": "KSAR HELAL",
        "NameAr": "قصر هلال",
        "Value": "KSAR HELAL",
        "PostalCode": "5016",
        "Latitude": 35.644167,
        "Longitude": 10.892778
      },
      {
        "Name": "BEMBLA",
        "NameAr": "بنبلة",
        "Value": "BEMBLA",
        "PostalCode": "5032",
        "Latitude": 35.700000,
        "Longitude": 10.783333
      },
      {
        "Name": "ZERAMDINE",
        "NameAr": "زرمدين",
        "Value": "ZERAMDINE",
        "PostalCode": "5033",
        "Latitude": 35.583333,
        "Longitude": 10.700000
      },
      {
        "Name": "MOKNINE",
        "NameAr": "المكنين",
        "Value": "MOKNINE",
        "PostalCode": "5034",
        "Latitude": 35.630556,
        "Longitude": 10.900000
      },
      {
        "Name": "OUERDANINE",
        "NameAr": "الوردانين",
        "Value": "OUERDANINE",
        "PostalCode": "5041",
        "Latitude": 35.783333,
        "Longitude": 10.683333
      },
      {
        "Name": "BEKALTA",
        "NameAr": "البقالطة",
        "Value": "BEKALTA",
        "PostalCode": "5090",
        "Latitude": 35.616667,
        "Longitude": 11.033333
      }
    ]
  },
  {
    "Name": "NABEUL",
    "NameAr": "نابل",
    "Value": "NABEUL",
    "Delegations": [
      {
        "Name": "BENI KHIAR",
        "NameAr": "بني خيار",
        "Value": "BENI KHIAR",
        "PostalCode": "8023",
        "Latitude": 36.466667,
        "Longitude": 10.783333
      },
      {
        "Name": "TAKELSA",
        "NameAr": "تاكلسة",
        "Value": "TAKELSA",
        "PostalCode": "8031",
        "Latitude": 36.783333,
        "Longitude": 10.633333
      },
      {
        "Name": "EL MIDA",
        "NameAr": "الميدة",
        "Value": "EL MIDA",
        "PostalCode": "8044",
        "Latitude": 36.733333,
        "Longitude": 10.916667
      },
      {
        "Name": "MENZEL BOUZELFA",
        "NameAr": "منزل بوزلفة",
        "Value": "MENZEL BOUZELFA",
        "PostalCode": "8010",
        "Latitude": 36.683333,
        "Longitude": 10.583333
      },
      {
        "Name": "KELIBIA",
        "NameAr": "قليبية",
        "Value": "KELIBIA",
        "PostalCode": "8090",
        "Latitude": 36.846111,
        "Longitude": 11.097500
      },
      {
        "Name": "HAMMAMET",
        "NameAr": "الحمامات",
        "Value": "HAMMAMET",
        "PostalCode": "8032",
        "Latitude": 36.400000,
        "Longitude": 10.616667
      },
      {
        "Name": "BOU ARGOUB",
        "NameAr": "بوعرقوب",
        "Value": "BOU ARGOUB",
        "PostalCode": "8061",
        "Latitude": 36.550000,
        "Longitude": 10.550000
      },
      {
        "Name": "KORBA",
        "NameAr": "قربة",
        "Value": "KORBA",
        "PostalCode": "8033",
        "Latitude": 36.575278,
        "Longitude": 10.862222
      },
      {
        "Name": "MENZEL TEMIME",
        "NameAr": "منزل تميم",
        "Value": "MENZEL TEMIME",
        "PostalCode": "8034",
        "Latitude": 36.783333,
        "Longitude": 10.983333
      },
      {
        "Name": "NABEUL",
        "NameAr": "نابل",
        "Value": "NABEUL",
        "PostalCode": "8062",
        "Latitude": 36.456065,
        "Longitude": 10.734616
      },
      {
        "Name": "EL HAOUARIA",
        "NameAr": "الهوارية",
        "Value": "EL HAOUARIA",
        "PostalCode": "8036",
        "Latitude": 37.050000,
        "Longitude": 11.016667
      },
      {
        "Name": "HAMMAM EL GHEZAZ",
        "NameAr": "حمام الأغزاز",
        "Value": "HAMMAM EL GHEZAZ",
        "PostalCode": "8025",
        "Latitude": 36.966667,
        "Longitude": 11.116667
      },
      {
        "Name": "SOLIMAN",
        "NameAr": "سليمان",
        "Value": "SOLIMAN",
        "PostalCode": "8063",
        "Latitude": 36.700000,
        "Longitude": 10.483333
      },
      {
        "Name": "GROMBALIA",
        "NameAr": "قرمبالية",
        "Value": "GROMBALIA",
        "PostalCode": "8092",
        "Latitude": 36.600000,
        "Longitude": 10.500000
      },
      {
        "Name": "DAR CHAABANE ELFEHRI",
        "NameAr": "دار شعبان الفهري",
        "Value": "DAR CHAABANE ELFEHRI",
        "PostalCode": "8011",
        "Latitude": 36.473333,
        "Longitude": 10.755833
      },
      {
        "Name": "BENI KHALLED",
        "NameAr": "بني خلاد",
        "Value": "BENI KHALLED",
        "PostalCode": "8099",
        "Latitude": 36.650000,
        "Longitude": 10.600000
      }
    ]
  },
  {
    "Name": "SFAX",
    "NameAr": "صفاقس",
    "Value": "SFAX",
    "Delegations": [
      {
        "Name": "AGAREB",
        "NameAr": "عقارب",
        "Value": "AGAREB",
        "PostalCode": "3030",
        "Latitude": 34.733333,
        "Longitude": 10.516667
      },
      {
        "Name": "EL HENCHA",
        "NameAr": "الحنشة",
        "Value": "EL HENCHA",
        "PostalCode": "3043",
        "Latitude": 35.233333,
        "Longitude": 10.600000
      },
      {
        "Name": "SFAX EST",
        "NameAr": "صفاقس الشرقية",
        "Value": "SFAX EST",
        "PostalCode": "3064",
        "Latitude": 34.740000,
        "Longitude": 10.760000
      },
      {
        "Name": "SFAX SUD",
        "NameAr": "صفاقس الجنوبية",
        "Value": "SFAX SUD",
        "PostalCode": "3083",
        "Latitude": 34.740000,
        "Longitude": 10.760000
      },
      {
        "Name": "MAHRAS",
        "NameAr": "المحرس",
        "Value": "MAHRAS",
        "PostalCode": "3044",
        "Latitude": 34.527778,
        "Longitude": 10.505556
      },
      {
        "Name": "SFAX VILLE",
        "NameAr": "صفاقس المدينة",
        "Value": "SFAX VILLE",
        "PostalCode": "3065",
        "Latitude": 34.737500,
        "Longitude": 10.757778
      },
      {
        "Name": "EL AMRA",
        "NameAr": "العامرة",
        "Value": "EL AMRA",
        "PostalCode": "3066",
        "Latitude": 34.900000,
        "Longitude": 10.616667
      },
      {
        "Name": "BIR ALI BEN KHELIFA",
        "NameAr": "بئر علي بن خليفة",
        "Value": "BIR ALI BEN KHELIFA",
        "PostalCode": "3085",
        "Latitude": 34.833333,
        "Longitude": 10.066667
      },
      {
        "Name": "KERKENAH",
        "NameAr": "قرقنة",
        "Value": "KERKENAH",
        "PostalCode": "3045",
        "Latitude": 34.720833,
        "Longitude": 11.150000
      },
      {
        "Name": "SAKIET EDDAIER",
        "NameAr": "ساقية الداير",
        "Value": "SAKIET EDDAIER",
        "PostalCode": "3011",
        "Latitude": 34.816667,
        "Longitude": 10.766667
      },
      {
        "Name": "JEBENIANA",
        "NameAr": "جبنيانة",
        "Value": "JEBENIANA",
        "PostalCode": "3086",
        "Latitude": 35.033333,
        "Longitude": 10.900000
      },
      {
        "Name": "SAKIET EZZIT",
        "NameAr": "ساقية الزيت",
        "Value": "SAKIET EZZIT",
        "PostalCode": "3091",
        "Latitude": 34.794444,
        "Longitude": 10.743333
      },
      {
        "Name": "MENZEL CHAKER",
        "NameAr": "منزل شاكر",
        "Value": "MENZEL CHAKER",
        "PostalCode": "3092",
        "Latitude": 34.966667,
        "Longitude": 10.366667
      },
      {
        "Name": "ESSKHIRA",
        "NameAr": "الصخيرة",
        "Value": "ESSKHIRA",
        "PostalCode": "3050",
        "Latitude": 34.291667,
        "Longitude": 10.072222
      },
      {
        "Name": "GHRAIBA",
        "NameAr": "الغريبة",
        "Value": "GHRAIBA",
        "PostalCode": "3034",
        "Latitude": 34.550000,
        "Longitude": 10.166667
      }
    ]
  },
  {
    "Name": "SIDI BOUZID",
    "NameAr": "سيدي بوزيد",
    "Value": "SIDI_BOUZID",
    "Delegations": [
      {
        "Name": "MENZEL BOUZAIENE",
        "NameAr": "منزل بوزيان",
        "Value": "MENZEL BOUZAIENE",
        "PostalCode": "9114",
        "Latitude": 34.783333,
        "Longitude": 9.250000
      },
      {
        "Name": "SIDI BOUZID OUEST",
        "NameAr": "سيدي بوزيد الغربية",
        "Value": "SIDI BOUZID OUEST",
        "PostalCode": "9131",
        "Latitude": 35.037222,
        "Longitude": 9.484722
      },
      {
        "Name": "BEN OUN",
        "NameAr": "بن عون",
        "Value": "BEN OUN",
        "PostalCode": "9169",
        "Latitude": 34.866667,
        "Longitude": 9.066667
      },
      {
        "Name": "SIDI BOUZID EST",
        "NameAr": "سيدي بوزيد الشرقية",
        "Value": "SIDI BOUZID EST",
        "PostalCode": "9100",
        "Latitude": 35.037222,
        "Longitude": 9.484722
      },
      {
        "Name": "OULED HAFFOUZ",
        "NameAr": "أولاد حفوز",
        "Value": "OULED HAFFOUZ",
        "PostalCode": "9180",
        "Latitude": 35.183333,
        "Longitude": 9.200000
      },
      {
        "Name": "REGUEB",
        "NameAr": "الرقاب",
        "Value": "REGUEB",
        "PostalCode": "9115",
        "Latitude": 34.850000,
        "Longitude": 9.766667
      },
      {
        "Name": "MAKNASSY",
        "NameAr": "المكناسي",
        "Value": "MAKNASSY",
        "PostalCode": "9140",
        "Latitude": 34.600000,
        "Longitude": 9.600000
      },
      {
        "Name": "JILMA",
        "NameAr": "جلمة",
        "Value": "JILMA",
        "PostalCode": "9110",
        "Latitude": 35.283333,
        "Longitude": 9.416667
      },
      {
        "Name": "SOUK JEDID",
        "NameAr": "السوق الجديد",
        "Value": "SOUK JEDID",
        "PostalCode": "9121",
        "Latitude": 35.100000,
        "Longitude": 9.316667
      },
      {
        "Name": "MEZZOUNA",
        "NameAr": "المزونة",
        "Value": "MEZZOUNA",
        "PostalCode": "9150",
        "Latitude": 34.516667,
        "Longitude": 9.833333
      },
      {
        "Name": "BIR EL HAFFEY",
        "NameAr": "بئر الحفي",
        "Value": "BIR EL HAFFEY",
        "PostalCode": "9113",
        "Latitude": 34.933333,
        "Longitude": 9.200000
      },
      {
        "Name": "CEBBALA",
        "NameAr": "السبالة",
        "Value": "CEBBALA",
        "PostalCode": "9122",
        "Latitude": 35.133333,
        "Longitude": 9.083333
      }
    ]
  },
  {
    "Name": "SILIANA",
    "NameAr": "سليانة",
    "Value": "SILIANA",
    "Delegations": [
      {
        "Name": "MAKTHAR",
        "NameAr": "مكثر",
        "Value": "MAKTHAR",
        "PostalCode": "6140",
        "Latitude": 35.850000,
        "Longitude": 9.200000
      },
      {
        "Name": "BOU ARADA",
        "NameAr": "بوعرادة",
        "Value": "BOU ARADA",
        "PostalCode": "6180",
        "Latitude": 36.350000,
        "Longitude": 9.616667
      },
      {
        "Name": "SIDI BOU ROUIS",
        "NameAr": "سيدي بورويس",
        "Value": "SIDI BOU ROUIS",
        "PostalCode": "6113",
        "Latitude": 36.116667,
        "Longitude": 9.333333
      },
      {
        "Name": "KESRA",
        "NameAr": "كسرى",
        "Value": "KESRA",
        "PostalCode": "6114",
        "Latitude": 35.816667,
        "Longitude": 9.366667
      },
      {
        "Name": "BARGOU",
        "NameAr": "برقو",
        "Value": "BARGOU",
        "PostalCode": "6115",
        "Latitude": 36.083333,
        "Longitude": 9.600000
      },
      {
        "Name": "EL AROUSSA",
        "NameAr": "العروسة",
        "Value": "EL AROUSSA",
        "PostalCode": "6116",
        "Latitude": 36.350000,
        "Longitude": 9.383333
      },
      {
        "Name": "LE KRIB",
        "NameAr": "الكريب",
        "Value": "LE KRIB",
        "PostalCode": "6120",
        "Latitude": 36.283333,
        "Longitude": 9.183333
      },
      {
        "Name": "SILIANA NORD",
        "NameAr": "سليانة الشمالية",
        "Value": "SILIANA NORD",
        "PostalCode": "6100",
        "Latitude": 36.084890,
        "Longitude": 9.370000
      },
      {
        "Name": "SILIANA SUD",
        "NameAr": "سليانة الجنوبية",
        "Value": "SILIANA SUD",
        "PostalCode": "6143",
        "Latitude": 36.084890,
        "Longitude": 9.370000
      },
      {
        "Name": "ROHIA",
        "NameAr": "الروحية",
        "Value": "ROHIA",
        "PostalCode": "6150",
        "Latitude": 35.650000,
        "Longitude": 9.000000
      },
      {
        "Name": "GAAFOUR",
        "NameAr": "قعفور",
        "Value": "GAAFOUR",
        "PostalCode": "6121",
        "Latitude": 36.283333,
        "Longitude": 9.416667
      }
    ]
  },
  {
    "Name": "SOUSSE",
    "NameAr": "سوسة",
    "Value": "SOUSSE",
    "Delegations": [
      {
        "Name": "SIDI EL HENI",
        "NameAr": "سيدي الهاني",
        "Value": "SIDI EL HENI",
        "PostalCode": "4026",
        "Latitude": 35.666667,
        "Longitude": 10.300000
      },
      {
        "Name": "SOUSSE JAOUHARA",
        "NameAr": "سوسة جوهرة",
        "Value": "SOUSSE JAOUHARA",
        "PostalCode": "4054",
        "Latitude": 35.825354,
        "Longitude": 10.607995
      },
      {
        "Name": "BOU FICHA",
        "NameAr": "بوفيشة",
        "Value": "BOU FICHA",
        "PostalCode": "4010",
        "Latitude": 36.266667,
        "Longitude": 10.400000
      },
      {
        "Name": "SOUSSE VILLE",
        "NameAr": "سوسة المدينة",
        "Value": "SOUSSE VILLE",
        "PostalCode": "4059",
        "Latitude": 35.828828,
        "Longitude": 10.640036
      },
      {
        "Name": "ENFIDHA",
        "NameAr": "النفيضة",
        "Value": "ENFIDHA",
        "PostalCode": "4030",
        "Latitude": 36.133333,
        "Longitude": 10.383333
      },
      {
        "Name": "KALAA EL KEBIRA",
        "NameAr": "القلعة الكبرى",
        "Value": "KALAA EL KEBIRA",
        "PostalCode": "4060",
        "Latitude": 35.866667,
        "Longitude": 10.533333
      },
      {
        "Name": "HAMMAM SOUSSE",
        "NameAr": "حمام سوسة",
        "Value": "HAMMAM SOUSSE",
        "PostalCode": "4011",
        "Latitude": 35.861111,
        "Longitude": 10.597222
      },
      {
        "Name": "HERGLA",
        "NameAr": "هرقلة",
        "Value": "HERGLA",
        "PostalCode": "4012",
        "Latitude": 36.033333,
        "Longitude": 10.500000
      },
      {
        "Name": "MSAKEN",
        "NameAr": "مساكن",
        "Value": "MSAKEN",
        "PostalCode": "4013",
        "Latitude": 35.729444,
        "Longitude": 10.580000
      },
      {
        "Name": "SOUSSE RIADH",
        "NameAr": "سوسة الرياض",
        "Value": "SOUSSE RIADH",
        "PostalCode": "4081",
        "Latitude": 35.809444,
        "Longitude": 10.591667
      },
      {
        "Name": "KONDAR",
        "NameAr": "كندار",
        "Value": "KONDAR",
        "PostalCode": "4020",
        "Latitude": 35.933333,
        "Longitude": 10.316667
      },
      {
        "Name": "SIDI BOU ALI",
        "NameAr": "سيدي بوعلي",
        "Value": "SIDI BOU ALI",
        "PostalCode": "4040",
        "Latitude": 35.966667,
        "Longitude": 10.466667
      },
      {
        "Name": "KALAA ESSGHIRA",
        "NameAr": "القلعة الصغرى",
        "Value": "KALAA ESSGHIRA",
        "PostalCode": "4021",
        "Latitude": 35.833333,
        "Longitude": 10.566667
      },
      {
        "Name": "AKOUDA",
        "NameAr": "أكودة",
        "Value": "AKOUDA",
        "PostalCode": "4022",
        "Latitude": 35.871111,
        "Longitude": 10.563889
      }
    ]
  },
  {
    "Name": "TATAOUINE",
    "NameAr": "تطاوين",
    "Value": "TATAOUINE",
    "Delegations": [
      {
        "Name": "TATAOUINE SUD",
        "NameAr": "تطاوين الجنوبية",
        "Value": "TATAOUINE SUD",
        "PostalCode": "3200",
        "Latitude": 32.929722,
        "Longitude": 10.451389
      },
      {
        "Name": "SMAR",
        "NameAr": "الصمار",
        "Value": "SMAR",
        "PostalCode": "3223",
        "Latitude": 33.116667,
        "Longitude": 10.783333
      },
      {
        "Name": "BIR LAHMAR",
        "NameAr": "بئر الأحمر",
        "Value": "BIR LAHMAR",
        "PostalCode": "3212",
        "Latitude": 33.200000,
        "Longitude": 10.583333
      },
      {
        "Name": "GHOMRASSEN",
        "NameAr": "غمراسن",
        "Value": "GHOMRASSEN",
        "PostalCode": "3224",
        "Latitude": 33.050000,
        "Longitude": 10.333333
      },
      {
        "Name": "TATAOUINE NORD",
        "NameAr": "تطاوين الشمالية",
        "Value": "TATAOUINE NORD",
        "PostalCode": "3233",
        "Latitude": 32.929722,
        "Longitude": 10.451389
      },
      {
        "Name": "REMADA",
        "NameAr": "رمادة",
        "Value": "REMADA",
        "PostalCode": "3240",
        "Latitude": 32.300000,
        "Longitude": 10.383333
      },
      {
        "Name": "DHEHIBA",
        "NameAr": "الذهيبة",
        "Value": "DHEHIBA",
        "PostalCode": "3253",
        "Latitude": 32.000000,
        "Longitude": 10.700000
      }
    ]
  },
  {
    "Name": "TOZEUR",
    "NameAr": "توزر",
    "Value": "TOZEUR",
    "Delegations": [
      {
        "Name": "DEGUECHE",
        "NameAr": "دقاش",
        "Value": "DEGUECHE",
        "PostalCode": "2261",
        "Latitude": 33.966667,
        "Longitude": 8.216667
      },
      {
        "Name": "TOZEUR",
        "NameAr": "توزر",
        "Value": "TOZEUR",
        "PostalCode": "2200",
        "Latitude": 33.919722,
        "Longitude": 8.133611
      },
      {
        "Name": "TAMEGHZA",
        "NameAr": "تمغزة",
        "Value": "TAMEGHZA",
        "PostalCode": "2211",
        "Latitude": 34.383333,
        "Longitude": 7.933333
      },
      {
        "Name": "HEZOUA",
        "NameAr": "حزوة",
        "Value": "HEZOUA",
        "PostalCode": "2223",
        "Latitude": 33.750000,
        "Longitude": 7.833333
      },
      {
        "Name": "NEFTA",
        "NameAr": "نفطة",
        "Value": "NEFTA",
        "PostalCode": "2240",
        "Latitude": 33.873056,
        "Longitude": 7.883333
      }
    ]
  },
  {
    "Name": "TUNIS",
    "NameAr": "تونس",
    "Value": "TUNIS",
    "Delegations": [
      {
        "Name": "JEBEL JELLOUD",
        "NameAr": "جبل الجلود",
        "Value": "JEBEL JELLOUD",
        "PostalCode": "1046",
        "Latitude": 36.775000,
        "Longitude": 10.195833
      },
      {
        "Name": "CARTHAGE",
        "NameAr": "قرطاج",
        "Value": "CARTHAGE",
        "PostalCode": "2016",
        "Latitude": 36.853611,
        "Longitude": 10.332222
      },
      {
        "Name": "LA MARSA",
        "NameAr": "المرسى",
        "Value": "LA MARSA",
        "PostalCode": "2076",
        "Latitude": 36.877600,
        "Longitude": 10.327800
      },
      {
        "Name": "BAB BHAR",
        "NameAr": "باب بحر",
        "Value": "BAB BHAR",
        "PostalCode": "1000",
        "Latitude": 36.798333,
        "Longitude": 10.180000
      },
      {
        "Name": "LA GOULETTE",
        "NameAr": "حلق الوادي",
        "Value": "LA GOULETTE",
        "PostalCode": "2060",
        "Latitude": 36.818889,
        "Longitude": 10.300000
      },
      {
        "Name": "LE BARDO",
        "NameAr": "باردو",
        "Value": "LE BARDO",
        "PostalCode": "2017",
        "Latitude": 36.809278,
        "Longitude": 10.139500
      },
      {
        "Name": "LA MEDINA",
        "NameAr": "تونس المدينة",
        "Value": "LA MEDINA",
        "PostalCode": "1000",
        "Latitude": 36.800000,
        "Longitude": 10.171667
      },
      {
        "Name": "EL MENZAH",
        "NameAr": "المنزه",
        "Value": "EL MENZAH",
        "PostalCode": "2092",
        "Latitude": 36.845194,
        "Longitude": 10.176694
      },
      {
        "Name": "EL OMRANE SUPERIEUR",
        "NameAr": "العمران الأعلى",
        "Value": "EL OMRANE SUPERIEUR",
        "PostalCode": "1064",
        "Latitude": 36.822500,
        "Longitude": 10.162222
      },
      {
        "Name": "CITE EL KHADRA",
        "NameAr": "حي الخضراء",
        "Value": "CITE EL KHADRA",
        "PostalCode": "1002",
        "Latitude": 36.834300,
        "Longitude": 10.199000
      },
      {
        "Name": "EL HRAIRIA",
        "NameAr": "الحرايرية",
        "Value": "EL HRAIRIA",
        "PostalCode": "2051",
        "Latitude": 36.775278,
        "Longitude": 10.102778
      },
      {
        "Name": "EL KABBARIA",
        "NameAr": "الكبارية",
        "Value": "EL KABBARIA",
        "PostalCode": "1074",
        "Latitude": 36.766667,
        "Longitude": 10.175000
      },
      {
        "Name": "BAB SOUIKA",
        "NameAr": "باب سويقة",
        "Value": "BAB SOUIKA",
        "PostalCode": "1075",
        "Latitude": 36.807500,
        "Longitude": 10.166944
      },
      {
        "Name": "EL OMRANE",
        "NameAr": "العمران",
        "Value": "EL OMRANE",
        "PostalCode": "1005",
        "Latitude": 36.820000,
        "Longitude": 10.155000
      },
      {
        "Name": "EZZOUHOUR  (TUNIS)",
        "NameAr": "الزهور (تونس)",
        "Value": "EZZOUHOUR  (TUNIS)",
        "PostalCode": "2052",
        "Latitude": 36.788500,
        "Longitude": 10.129000
      },
      {
        "Name": "SIDI EL BECHIR",
        "NameAr": "سيدي البشير",
        "Value": "SIDI EL BECHIR",
        "PostalCode": "1089",
        "Latitude": 36.783333,
        "Longitude": 10.190000
      },
      {
        "Name": "SIDI HASSINE",
        "NameAr": "سيدي حسين",
        "Value": "SIDI HASSINE",
        "PostalCode": "1095",
        "Latitude": 36.794444,
        "Longitude": 10.083333
      },
      {
        "Name": "EL KRAM",
        "NameAr": "الكرم",
        "Value": "EL KRAM",
        "PostalCode": "2089",
        "Latitude": 36.833333,
        "Longitude": 10.316667
      },
      {
        "Name": "ESSIJOUMI",
        "NameAr": "السيجومي",
        "Value": "ESSIJOUMI",
        "PostalCode": "2072",
        "Latitude": 36.783333,
        "Longitude": 10.133333
      },
      {
        "Name": "ETTAHRIR",
        "NameAr": "التحرير",
        "Value": "ETTAHRIR",
        "PostalCode": "2042",
        "Latitude": 36.826111,
        "Longitude": 10.142778
      },
      {
        "Name": "EL OUERDIA",
        "NameAr": "الوردية",
        "Value": "EL OUERDIA",
        "PostalCode": "1009",
        "Latitude": 36.772500,
        "Longitude": 10.185000
      }
    ]
  },
  {
    "Name": "ZAGHOUAN",
    "NameAr": "زغوان",
    "Value": "ZAGHOUAN",
    "Delegations": [
      {
        "Name": "ZAGHOUAN",
        "NameAr": "زغوان",
        "Value": "ZAGHOUAN",
        "PostalCode": "1100",
        "Latitude": 36.400000,
        "Longitude": 10.150000
      },
      {
        "Name": "ENNADHOUR",
        "NameAr": "الناظور",
        "Value": "ENNADHOUR",
        "PostalCode": "1160",
        "Latitude": 36.216667,
        "Longitude": 10.066667
      },
      {
        "Name": "EL FAHS",
        "NameAr": "الفحص",
        "Value": "EL FAHS",
        "PostalCode": "1140",
        "Latitude": 36.376111,
        "Longitude": 9.904167
      },
      {
        "Name": "BIR MCHERGA",
        "NameAr": "بئر مشارقة",
        "Value": "BIR MCHERGA",
        "PostalCode": "1111",
        "Latitude": 36.516667,
        "Longitude": 10.016667
      },
      {
        "Name": "HAMMAM ZRIBA",
        "NameAr": "حمام الزريبة",
        "Value": "HAMMAM ZRIBA",
        "PostalCode": "1112",
        "Latitude": 36.300000,
        "Longitude": 10.216667
      },
      {
        "Name": "SAOUEF",
        "NameAr": "صواف",
        "Value": "SAOUEF",
        "PostalCode": "1115",
        "Latitude": 36.266667,
        "Longitude": 9.816667
      }
    ]
  }
]
